[
  {
    "id": "DB001",
    "name": "Ravi",
    "phone": "9876543210",
    "vehicle": "Bike",
    "status": "Available",
    "lat": 17.6868,
    "lng": 83.2185
  },
  {
    "id": "DB002",
    "name": "Imran",
    "phone": "9123456789",
    "vehicle": "Bike",
    "status": "On Delivery",
    "lat": 17.7041,
    "lng": 83.2977
  },
  {
    "id": "DB003",
    "name": "Suresh",
    "phone": "9988776655",
    "vehicle": "Bike",
    "status": "Available",
    "lat": 17.7212,
    "lng": 83.3059
  },
  {
    "id": "DB004",
    "name": "Kiran",
    "phone": "9012345678",
    "vehicle": "Bike",
    "status": "Available",
    "lat": 17.7355,
    "lng": 83.2456
  },
  {
    "id": "DB005",
    "name": "Manoj",
    "phone": "9345678123",
    "vehicle": "Bike",
    "status": "On Delivery",
    "lat": 17.6923,
    "lng": 83.2621
  },
  {
    "id": "DB006",
    "name": "Arjun",
    "phone": "9887766554",
    "vehicle": "Bike",
    "status": "Available",
    "lat": 17.7089,
    "lng": 83.2314
  },
  {
    "id": "DB007",
    "name": "Naveen",
    "phone": "9966332211",
    "vehicle": "Bike",
    "status": "On Delivery",
    "lat": 17.7196,
    "lng": 83.2743
  },
  {
    "id": "DB008",
    "name": "Prasad",
    "phone": "9871203456",
    "vehicle": "Bike",
    "status": "Available",
    "lat": 17.7281,
    "lng": 83.2902
  },
  {
    "id": "DB009",
    "name": "Vikram",
    "phone": "9090909090",
    "vehicle": "Bike",
    "status": "Available",
    "lat": 17.7004,
    "lng": 83.2109
  },
  {
    "id": "DB010",
    "name": "Faizal",
    "phone": "9812345670",
    "vehicle": "Bike",
    "status": "On Delivery",
    "lat": 17.7147,
    "lng": 83.2558
  }
]